{
"type": "FeatureCollection",
"name": "Ireland DC geoJson",
"crs": { "type": "name", "properties": { "name": "urn:ogc:def:crs:OGC:1.3:CRS84" } },
"features": [
{ "type": "Feature", "properties": { "Name": "BT Ireland\nTelephone House belfast\nBT1 4NB Belfast\nAntrim, Ireland", "description": null, "timestamp": null, "begin": null, "end": null, "altitudeMode": null, "tessellate": -1, "extrude": 0, "visibility": -1, "drawOrder": null, "icon": null }, "geometry": { "type": "Point", "coordinates": [ -5.923705351324372, 54.596320369254798, 0.0 ] } },
{ "type": "Feature", "properties": { "Name": "Web World\nUnit B15, South City Business Centre\nD24 N79F Dublin\nDublin, Ireland", "description": null, "timestamp": null, "begin": null, "end": null, "altitudeMode": null, "tessellate": -1, "extrude": 0, "visibility": -1, "drawOrder": null, "icon": null }, "geometry": { "type": "Point", "coordinates": [ -6.375599999194206, 53.280444000270997, 0.0 ] } },
{ "type": "Feature", "properties": { "Name": "Blanchardstown Corp Park, Unit 9", "description": null, "timestamp": null, "begin": null, "end": null, "altitudeMode": null, "tessellate": -1, "extrude": 0, "visibility": -1, "drawOrder": null, "icon": null }, "geometry": { "type": "Point", "coordinates": [ -6.367826048076086, 53.412554901154188, 0.0 ] } },
{ "type": "Feature", "properties": { "Name": " BT Ireland (Site 2)", "description": null, "timestamp": null, "begin": null, "end": null, "altitudeMode": null, "tessellate": -1, "extrude": 0, "visibility": -1, "drawOrder": null, "icon": null }, "geometry": { "type": "Point", "coordinates": [ -6.238176268528292, 53.33915833594412, 0.0 ] } },
{ "type": "Feature", "properties": { "Name": "BT Ireland (Site 3)", "description": null, "timestamp": null, "begin": null, "end": null, "altitudeMode": null, "tessellate": -1, "extrude": 0, "visibility": -1, "drawOrder": null, "icon": null }, "geometry": { "type": "Point", "coordinates": [ -5.864958999694663, 54.594772299675327, 0.0 ] } },
{ "type": "Feature", "properties": { "Name": " CIX - Cork Internet eXchange", "description": null, "timestamp": null, "begin": null, "end": null, "altitudeMode": null, "tessellate": -1, "extrude": 0, "visibility": -1, "drawOrder": null, "icon": null }, "geometry": { "type": "Point", "coordinates": [ -8.511959141025734, 51.903828995686062, 0.0 ] } },
{ "type": "Feature", "properties": { "Name": "Clonshaugh Industrial Estate", "description": null, "timestamp": null, "begin": null, "end": null, "altitudeMode": null, "tessellate": -1, "extrude": 0, "visibility": -1, "drawOrder": null, "icon": null }, "geometry": { "type": "Point", "coordinates": [ -6.328349652557057, 53.391744452469773, 0.0 ] } },
{ "type": "Feature", "properties": { "Name": "eircom Limited\nCityWest Business Park , Unit 4050, Kingswood Avenue\nD24 Dublin\nIreland", "description": null, "timestamp": null, "begin": null, "end": null, "altitudeMode": null, "tessellate": -1, "extrude": 0, "visibility": -1, "drawOrder": null, "icon": null }, "geometry": { "type": "Point", "coordinates": [ -6.416533600835783, 53.295416499199682, 0.0 ] } },
{ "type": "Feature", "properties": { "Name": "Equinix DB1", "description": null, "timestamp": null, "begin": null, "end": null, "altitudeMode": null, "tessellate": -1, "extrude": 0, "visibility": -1, "drawOrder": null, "icon": null }, "geometry": { "type": "Point", "coordinates": [ -6.415031894971194, 53.291590700891852, 0.0 ] } },
{ "type": "Feature", "properties": { "Name": "Equinix DB2", "description": null, "timestamp": null, "begin": null, "end": null, "altitudeMode": null, "tessellate": -1, "extrude": 0, "visibility": -1, "drawOrder": null, "icon": null }, "geometry": { "type": "Point", "coordinates": [ -6.440348728145874, 53.318246586357233, 0.0 ] } },
{ "type": "Feature", "properties": { "Name": "Equinix DB3", "description": null, "timestamp": null, "begin": null, "end": null, "altitudeMode": null, "tessellate": -1, "extrude": 0, "visibility": -1, "drawOrder": null, "icon": null }, "geometry": { "type": "Point", "coordinates": [ -6.347629805125406, 53.410910368148343, 0.0 ] } },
{ "type": "Feature", "properties": { "Name": "Keppel DC Dublin 1 (DUB1)", "description": null, "timestamp": null, "begin": null, "end": null, "altitudeMode": null, "tessellate": -1, "extrude": 0, "visibility": -1, "drawOrder": null, "icon": null }, "geometry": { "type": "Point", "coordinates": [ -6.416334092537602, 53.29152905714502, 0.0 ] } },
{ "type": "Feature", "properties": { "Name": "Profile Park, Kilcarbery", "description": null, "timestamp": null, "begin": null, "end": null, "altitudeMode": null, "tessellate": -1, "extrude": 0, "visibility": -1, "drawOrder": null, "icon": null }, "geometry": { "type": "Point", "coordinates": [ -6.440036049373949, 53.317833565838953, 0.0 ] } },
{ "type": "Feature", "properties": { "Name": "Servecentric Dublin, Ireland", "description": null, "timestamp": null, "begin": null, "end": null, "altitudeMode": null, "tessellate": -1, "extrude": 0, "visibility": -1, "drawOrder": null, "icon": null }, "geometry": { "type": "Point", "coordinates": [ -6.370381175957343, 53.412359137084842, 0.0 ] } },
{ "type": "Feature", "properties": { "Name": "Sleepless\nGray House, Galway Technology Park, Parkmore\nGalway Galway\nGalway, Ireland", "description": null, "timestamp": null, "begin": null, "end": null, "altitudeMode": null, "tessellate": -1, "extrude": 0, "visibility": -1, "drawOrder": null, "icon": null }, "geometry": { "type": "Point", "coordinates": [ -9.019306003161983, 53.286902251421211, 0.0 ] } },
{ "type": "Feature", "properties": { "Name": "Sungard Availability Services\nGrange Castle\n22 Dublin\nIreland", "description": null, "timestamp": null, "begin": null, "end": null, "altitudeMode": null, "tessellate": -1, "extrude": 0, "visibility": -1, "drawOrder": null, "icon": null }, "geometry": { "type": "Point", "coordinates": [ -6.323077700264679, 53.340478103994833, 0.0 ] } },
{ "type": "Feature", "properties": { "Name": "Viatel\nUnit 1 College Business and tech Park\nD15 PEC4 Dublin\nDublin, Ireland", "description": null, "timestamp": null, "begin": null, "end": null, "altitudeMode": null, "tessellate": -1, "extrude": 0, "visibility": -1, "drawOrder": null, "icon": null }, "geometry": { "type": "Point", "coordinates": [ -6.367760389308113, 53.400426985136193, 0.0 ] } }
]
}
